{
    "total_entries": 535,
    "per_page": 25,
    "current_page": 1,
    "restaurants": [
        {
            "id": 151612,
            "name": "Perry's Union Street",
            "address": "1944 Union Street",
            "city": "San Francisco",
            "state": "CA",
            "area": "San Francisco Bay Area",
            "postal_code": "94123",
            "country": "US",
            "phone": "4159229022",
            "lat": 37.797904,
            "lng": -122.431332,
            "price": 2,
            "cuisines": [
                               {
                               "cuisine": "Organic"
                               },
                               {
                               "cuisine": "Seafood"
                               },
                               {
                               "cuisine": "Californian"
                               }
                               ],
            "reserve_url": "http://www.opentable.com/single.aspx?rid=151612",
            "mobile_reserve_url": "http://mobile.opentable.com/opentable/?restId=151612",
            "image_url": "https://www.opentable.com/img/restimages/151612.jpg"
        },
        {
            "id": 141049,
            "name": "Trou Normand",
            "address": "140 New Montgomery Street",
            "city": "San Francisco",
            "state": "CA",
            "area": "San Francisco Bay Area",
            "postal_code": "94103",
            "country": "US",
            "phone": "4159750876",
            "lat": 37.786664,
            "lng": -122.399773,
            "price": 2,
            "cuisines": [
                               {
                               "cuisine": "French"
                               },
                               {
                               "cuisine": "Seafood"
                               },
                               {
                               "cuisine": "Californian"
                               }
                               ],
            "reserve_url": "http://www.opentable.com/single.aspx?rid=141049",
            "mobile_reserve_url": "http://mobile.opentable.com/opentable/?restId=141049",
            "image_url": "https://www.opentable.com/img/restimages/141049.jpg"
        },
        {
            "id": 22792,
            "name": "Fishermen's Grotto #9",
            "address": "2847 Taylor Street",
            "city": "San Francisco",
            "state": "CA",
            "area": "San Francisco Bay Area",
            "postal_code": "94133",
            "country": "US",
            "phone": "4156737025",
            "lat": 37.808407,
            "lng": -122.415845,
            "price": 2,
            "cuisines": [
                               {
                               "cuisine": "Organic"
                               },
                               {
                               "cuisine": "Seafood"
                               },
                               {
                               "cuisine": "Prime Rib"
                               }
                               ],
            "reserve_url": "http://www.opentable.com/single.aspx?rid=22792",
            "mobile_reserve_url": "http://mobile.opentable.com/opentable/?restId=22792",
            "image_url": "https://www.opentable.com/img/restimages/22792.jpg"
        },
        {
            "id": 50962,
            "name": "Sons & Daughters",
            "address": "708 Bush Street",
            "city": "San Francisco",
            "state": "CA",
            "area": "San Francisco Bay Area",
            "postal_code": "94108",
            "country": "US",
            "phone": "4153918311",
            "lat": 37.790138,
            "lng": -122.40908,
            "price": 4,
            "cuisines": [
                               {
                               "cuisine": "Brewery"
                               },
                               {
                               "cuisine": "Seafood"
                               },
                               {
                               "cuisine": "Burgers"
                               }
                               ],
            "reserve_url": "http://www.opentable.com/single.aspx?rid=50962",
            "mobile_reserve_url": "http://mobile.opentable.com/opentable/?restId=50962",
            "image_url": "https://www.opentable.com/img/restimages/50962.jpg"
        },
        {
            "id": 4121,
            "name": "Ristobar",
            "address": "2300 Chestnut St",
            "city": "San Francisco",
            "state": "CA",
            "area": "San Francisco Bay Area",
            "postal_code": "94123",
            "country": "US",
            "phone": "4159236464x",
            "lat": 37.80035,
            "lng": -122.441486,
            "price": 2,
            "cuisines": [
                               {
                               "cuisine": "Italian"
                               },
                               {
                               "cuisine": "Seafood"
                               },
                               {
                               "cuisine": "Steak"
                               }
                               ],
            "reserve_url": "http://www.opentable.com/single.aspx?rid=4121",
            "mobile_reserve_url": "http://mobile.opentable.com/opentable/?restId=4121",
            "image_url": "https://www.opentable.com/img/restimages/4121.jpg"
        },
        {
            "id": 6001,
            "name": "Mamacita",
            "address": "2317 Chestnut St",
            "city": "San Francisco",
            "state": "CA",
            "area": "San Francisco Bay Area",
            "postal_code": "94123",
            "country": "US",
            "phone": "4153468494",
            "lat": 37.799953,
            "lng": -122.44147,
            "price": 2,
            "cuisines": [
                               {
                               "cuisine": "Italian"
                               },
                               {
                               "cuisine": "Seafood"
                               },
                               {
                               "cuisine": "Pizza"
                               }
                               ],
            "reserve_url": "http://www.opentable.com/single.aspx?rid=6001",
            "mobile_reserve_url": "http://mobile.opentable.com/opentable/?restId=6001",
            "image_url": "https://www.opentable.com/img/restimages/6001.jpg"
        },
        {
            "id": 149539,
            "name": "KUSAKABE",
            "address": "584 Washington Street",
            "city": "San Francisco",
            "state": "CA",
            "area": "San Francisco Bay Area",
            "postal_code": "94111",
            "country": "US",
            "phone": "4157570155",
            "lat": 37.795597,
            "lng": -122.402963,
            "price": 4,
            "cuisines": [
                               {
                               "cuisine": "Japanese"
                               },
                               {
                               "cuisine": "Seafood"
                               },
                               {
                               "cuisine": "Sushi"
                               }
                               ],
            "reserve_url": "http://www.opentable.com/single.aspx?rid=149539",
            "mobile_reserve_url": "http://mobile.opentable.com/opentable/?restId=149539",
            "image_url": "https://www.opentable.com/img/restimages/149539.jpg"
        },
        {
            "id": 7742,
            "name": "The Oak Room - The Westin St. Francis",
            "address": "335 Powell St",
            "city": "San Francisco",
            "state": "CA",
            "area": "San Francisco Bay Area",
            "postal_code": "94102",
            "country": "US",
            "phone": "4157740264",
            "lat": 37.787978,
            "lng": -122.408365,
            "price": 2,
            "cuisines": [
                               {
                               "cuisine": "Organic"
                               },
                               {
                               "cuisine": "Seafood"
                               },
                               {
                               "cuisine": "Steak"
                               }
                               ],
            "reserve_url": "http://www.opentable.com/single.aspx?rid=7742",
            "mobile_reserve_url": "http://mobile.opentable.com/opentable/?restId=7742",
            "image_url": "https://www.opentable.com/img/restimages/7742.jpg"
        },
        {
            "id": 22126,
            "name": "BIN 38",
            "address": "3232 Scott Street",
            "city": "San Francisco",
            "state": "CA",
            "area": "San Francisco Bay Area",
            "postal_code": "94123",
            "country": "US",
            "phone": "4155673838x",
            "lat": 37.799744,
            "lng": -122.441095,
            "price": 2,
            "cuisines": [
                               {
                               "cuisine": "Brewery"
                               },
                               {
                               "cuisine": "American"
                               },
                               {
                               "cuisine": "Southern"
                               }
                               ],
            "reserve_url": "http://www.opentable.com/single.aspx?rid=22126",
            "mobile_reserve_url": "http://mobile.opentable.com/opentable/?restId=22126",
            "image_url": "https://www.opentable.com/img/restimages/22126.jpg"
        },
        {
            "id": 45916,
            "name": "Benu",
            "address": "22 Hawthorne Street",
            "city": "San Francisco",
            "state": "CA",
            "area": "San Francisco Bay Area",
            "postal_code": "94105",
            "country": "US",
            "phone": "4156854860x",
            "lat": 37.785402,
            "lng": -122.399068,
            "price": 4,
            "cuisines": [
                               {
                               "cuisine": "Continental"
                               },
                               {
                               "cuisine": "Seafood"
                               },
                               {
                               "cuisine": "Mediterranean"
                               }
                               ],
            "reserve_url": "http://www.opentable.com/single.aspx?rid=45916",
            "mobile_reserve_url": "http://mobile.opentable.com/opentable/?restId=45916",
            "image_url": "https://www.opentable.com/img/restimages/45916.jpg"
        },
        {
            "id": 7405,
            "name": "Lark Creek Steak",
            "address": "845 Market Street - 4th Floor",
            "city": "San Francisco",
            "state": "CA",
            "area": "San Francisco Bay Area",
            "postal_code": "94103",
            "country": "US",
            "phone": "4155934100x",
            "lat": 37.784909,
            "lng": -122.406922,
            "price": 3,
            "cuisines": [
                               {
                               "cuisine": "Steak"
                               },
                               {
                               "cuisine": "Seafood"
                               },
                               {
                               "cuisine": "Prime Rib"
                               }
                               ],
            "reserve_url": "http://www.opentable.com/single.aspx?rid=7405",
            "mobile_reserve_url": "http://mobile.opentable.com/opentable/?restId=7405",
            "image_url": "https://www.opentable.com/img/restimages/7405.jpg"
        },
        {
            "id": 7644,
            "name": "Le Zinc",
            "address": "4063 24th Street",
            "city": "San Francisco",
            "state": "CA",
            "area": "San Francisco Bay Area",
            "postal_code": "94114",
            "country": "US",
            "phone": "4156479400x",
            "lat": 37.7511,
            "lng": -122.433235,
            "price": 2,
            "cuisines": [
                               {
                               "cuisine": "Organic"
                               },
                               {
                               "cuisine": "Seafood"
                               },
                               {
                               "cuisine": "Californian"
                               }
                               ],
            "reserve_url": "http://www.opentable.com/single.aspx?rid=7644",
            "mobile_reserve_url": "http://mobile.opentable.com/opentable/?restId=7644",
            "image_url": "https://www.opentable.com/img/restimages/7644.jpg"
        },
        {
            "id": 114487,
            "name": "Maruya",
            "address": "2931 16th Street",
            "city": "San Francisco",
            "state": "CA",
            "area": "San Francisco Bay Area",
            "postal_code": "94103",
            "country": "US",
            "phone": "4155030702x",
            "lat": 37.764932,
            "lng": -122.418318,
            "price": 4,
            "cuisines": [
                               {
                               "cuisine": "South American"
                               },
                               {
                               "cuisine": "Seafood"
                               },
                               {
                               "cuisine": "Peruvian"
                               }
                               ],
            "reserve_url": "http://www.opentable.com/single.aspx?rid=114487",
            "mobile_reserve_url": "http://mobile.opentable.com/opentable/?restId=114487",
            "image_url": "https://www.opentable.com/img/restimages/114487.jpg"
        },
        {
            "id": 37849,
            "name": "Jai Yun",
            "address": "680 Clay Street",
            "city": "San Francisco",
            "state": "CA",
            "area": "San Francisco Bay Area",
            "postal_code": "94111",
            "country": "US",
            "phone": "4159817438",
            "lat": 37.794505,
            "lng": -122.404505,
            "price": 4,
            "cuisines": [
                               {
                               "cuisine": "Vietnamese"
                               },
                               {
                               "cuisine": "Seafood"
                               },
                               {
                               "cuisine": "International"
                               }
                               ],
            "reserve_url": "http://www.opentable.com/single.aspx?rid=37849",
            "mobile_reserve_url": "http://mobile.opentable.com/opentable/?restId=37849",
            "image_url": "https://www.opentable.com/img/restimages/37849.jpg"
        },
        {
            "id": 144724,
            "name": "TBD Restaurant",
            "address": "1077 Mission Street",
            "city": "San Francisco",
            "state": "CA",
            "area": "San Francisco Bay Area",
            "postal_code": "94103",
            "country": "US",
            "phone": "4154311826x",
            "lat": 37.779569,
            "lng": -122.410182,
            "price": 3,
            "cuisines": [
                               {
                               "cuisine": "Bistro"
                               },
                               {
                               "cuisine": "Steak"
                               },
                               {
                               "cuisine": "Californian"
                               }
                               ],
            "reserve_url": "http://www.opentable.com/single.aspx?rid=144724",
            "mobile_reserve_url": "http://mobile.opentable.com/opentable/?restId=144724",
            "image_url": "https://www.opentable.com/img/restimages/144724.jpg"
        },
        {
            "id": 282,
            "name": "Ideale",
            "address": "1309 Grant Avenue",
            "city": "San Francisco",
            "state": "CA",
            "area": "San Francisco Bay Area",
            "postal_code": "94109",
            "country": "US",
            "phone": "4153914129x",
            "lat": 37.798969,
            "lng": -122.407312,
            "price": 2,
            "cuisines": [
                               {
                               "cuisine": "Organic"
                               },
                               {
                               "cuisine": "Comfort"
                               },
                               {
                               "cuisine": "Southern"
                               }
                               ],
            "reserve_url": "http://www.opentable.com/single.aspx?rid=282",
            "mobile_reserve_url": "http://mobile.opentable.com/opentable/?restId=282",
            "image_url": "https://www.opentable.com/img/restimages/282.jpg"
        },
        {
            "id": 23521,
            "name": "Blue Plate",
            "address": "3218 Mission Street",
            "city": "San Francisco",
            "state": "CA",
            "area": "San Francisco Bay Area",
            "postal_code": "94110",
            "country": "US",
            "phone": "4152826777x",
            "lat": 37.745275,
            "lng": -122.420435,
            "price": 3,
            "cuisines": [
                               {
                               "cuisine": "Prime Rib"
                               },
                               {
                               "cuisine": "Seafood"
                               },
                               {
                               "cuisine": "International"
                               }
                               ],
            "reserve_url": "http://www.opentable.com/single.aspx?rid=23521",
            "mobile_reserve_url": "http://mobile.opentable.com/opentable/?restId=23521",
            "image_url": "https://www.opentable.com/img/restimages/23521.jpg"
        },
        {
            "id": 117388,
            "name": "TamashiSoul Sushi Bar",
            "address": "1849 Union Street",
            "city": "San Francisco",
            "state": "CA",
            "area": "San Francisco Bay Area",
            "postal_code": "94123",
            "country": "US",
            "phone": "415-346-1849x",
            "lat": 37.79781,
            "lng": -122.429741,
            "price": 3,
            "cuisines": [
                               {
                               "cuisine": "Japanese"
                               },
                               {
                               "cuisine": "Seafood"
                               },
                               {
                               "cuisine": "Sushi"
                               }
                               ],
            "reserve_url": "http://www.opentable.com/single.aspx?rid=117388",
            "mobile_reserve_url": "http://mobile.opentable.com/opentable/?restId=117388",
            "image_url": "https://www.opentable.com/img/restimages/117388.jpg"
        },
        {
            "id": 111319,
            "name": "Craw Station",
            "address": "1336 9th Avenue",
            "city": "San Francisco",
            "state": "CA",
            "area": "San Francisco Bay Area",
            "postal_code": "94122",
            "country": "US",
            "phone": "4156829980x",
            "lat": 37.76335,
            "lng": -122.466157,
            "price": 2,
            "cuisines": [
                               {
                               "cuisine": "Brewery"
                               },
                               {
                               "cuisine": "Seafood"
                               },
                               {
                               "cuisine": "Caribbean"
                               }
                               ],
            "reserve_url": "http://www.opentable.com/single.aspx?rid=111319",
            "mobile_reserve_url": "http://mobile.opentable.com/opentable/?restId=111319",
            "image_url": "https://www.opentable.com/img/restimages/111319.jpg"
        },
        {
            "id": 105217,
            "name": "South at SF Jazz",
            "address": "201 Franklin Street",
            "city": "San Francisco",
            "state": "CA",
            "area": "San Francisco Bay Area",
            "postal_code": "94102",
            "country": "US",
            "phone": "4155393905x",
            "lat": 37.776166,
            "lng": -122.421185,
            "price": 2,
            "cuisines": [
                               {
                               "cuisine": "Organic"
                               },
                               {
                               "cuisine": "Seafood"
                               },
                               {
                               "cuisine": "Southern"
                               }
                               ],
            "reserve_url": "http://www.opentable.com/single.aspx?rid=105217",
            "mobile_reserve_url": "http://mobile.opentable.com/opentable/?restId=105217",
            "image_url": "https://www.opentable.com/img/restimages/105217.jpg"
        },
        {
            "id": 114490,
            "name": "Stones Throw",
            "address": "1896 Hyde Street",
            "city": "San Francisco",
            "state": "CA",
            "area": "San Francisco Bay Area",
            "postal_code": "94109",
            "country": "US",
            "phone": "4157962901x",
            "lat": 37.798117,
            "lng": -122.41873,
            "price": 3,
            "cuisines": [
                               {
                               "cuisine": "Brewery"
                               },
                               {
                               "cuisine": "Tapas"
                               },
                               {
                               "cuisine": "Wine"
                               }
                               ],
            "reserve_url": "http://www.opentable.com/single.aspx?rid=114490",
            "mobile_reserve_url": "http://mobile.opentable.com/opentable/?restId=114490",
            "image_url": "https://www.opentable.com/img/restimages/114490.jpg"
        },
        {
            "id": 117262,
            "name": "Ichi Sushi & Ni Bar",
            "address": "3282 Mission Street",
            "city": "San Francisco",
            "state": "CA",
            "area": "San Francisco Bay Area",
            "postal_code": "94110",
            "country": "US",
            "phone": "4155254750",
            "lat": 37.742681,
            "lng": -122.421542,
            "price": 3,
            "cuisines": [
                               {
                               "cuisine": "Japanese"
                               },
                               {
                               "cuisine": "Seafood"
                               },
                               {
                               "cuisine": "Sushi"
                               }
                               ],
            "reserve_url": "http://www.opentable.com/single.aspx?rid=117262",
            "mobile_reserve_url": "http://mobile.opentable.com/opentable/?restId=117262",
            "image_url": "https://www.opentable.com/img/restimages/117262.jpg"
        },
        {
            "id": 2542,
            "name": "Absinthe Brasserie and Bar",
            "address": "398 Hayes Street",
            "city": "San Francisco",
            "state": "CA",
            "area": "San Francisco Bay Area",
            "postal_code": "94102",
            "country": "US",
            "phone": "4155511590x",
            "lat": 37.776917,
            "lng": -122.42298,
            "price": 2,
            "cuisines": [
                               {
                               "cuisine": "French"
                               },
                               {
                               "cuisine": "Seafood"
                               },
                               {
                               "cuisine": "Tapas"
                               }
                               ],
            "reserve_url": "http://www.opentable.com/single.aspx?rid=2542",
            "mobile_reserve_url": "http://mobile.opentable.com/opentable/?restId=2542",
            "image_url": "https://www.opentable.com/img/restimages/2542.jpg"
        },
        {
            "id": 15403,
            "name": "Le Central",
            "address": "453 Bush St.",
            "city": "San Francisco",
            "state": "CA",
            "area": "San Francisco Bay Area",
            "postal_code": "94108",
            "country": "US",
            "phone": "4153912233",
            "lat": 37.790452,
            "lng": -122.405025,
            "price": 2,
            "cuisines": [
                               {
                               "cuisine": "Organic"
                               },
                               {
                               "cuisine": "Seafood"
                               },
                               {
                               "cuisine": "Southern"
                               }
                               ],
            "reserve_url": "http://www.opentable.com/single.aspx?rid=15403",
            "mobile_reserve_url": "http://mobile.opentable.com/opentable/?restId=15403",
            "image_url": "https://www.opentable.com/img/restimages/15403.jpg"
        },
        {
            "id": 13591,
            "name": "Spruce",
            "address": "3640 Sacramento St",
            "city": "San Francisco",
            "state": "CA",
            "area": "San Francisco Bay Area",
            "postal_code": "94118",
            "country": "US",
            "phone": "4159315100x",
            "lat": 37.787725,
            "lng": -122.452758,
            "price": 3,
            "cuisines": [
                               {
                               "cuisine": "Organic"
                               },
                               {
                               "cuisine": "Seafood"
                               },
                               {
                               "cuisine": "Continental"
                               }
                               ],
            "reserve_url": "http://www.opentable.com/single.aspx?rid=13591",
            "mobile_reserve_url": "http://mobile.opentable.com/opentable/?restId=13591",
            "image_url": "https://www.opentable.com/img/restimages/13591.jpg"
        }
    ]
}
